[{"_id":{"$oid":"590261b4e9379091b1b60e88"},"c_at":"2017-04-27T21:25:08.311Z","chapman_code":"CON","district_name":"East","film_number":"241258","freecen1_filename":"ho410133.vld","freecen1_fixed_dat_entry_id":{"$oid":"590261b4e9379091b1b60e72"},"num_individuals":9171,"online_time":null,"parish_number":null,"piece_number":133,"place_country":"England","place_id":{"$oid":"590261b4e9379091b1b60e9e"},"place_latitude":"50.541666625","place_longitude":"-4.370833374999999","remarks":null,"remarks_coord":null,"status":"Online","subplaces":[{"name":"Callington Borough","lat":0.0,"long":0.0},{"name":"Calstock","lat":"50.483333","long":"-4.2"},{"name":"St. Dominick","lat":0.0,"long":0.0},{"name":"St. Ive","lat":0.0,"long":0.0},{"name":"St. Mellion","lat":0.0,"long":0.0},{"name":"Menheniot","lat":"50.433333","long":"-4.416667"},{"name":"Pillaton","lat":"50.45","long":"-4.3"},{"name":"Quethiock","lat":"50.45","long":"-4.366667"},{"name":"Southhill","lat":"50.533333","long":"-4.35"}],"subplaces_sort":"callington borough, calstock, st. dominick, st. ive, st. mellion, menheniot, pillaton, quethiock, southhill","suffix":null,"u_at":"2017-05-04T19:05:05.167Z","year":"1841"},{"_id":{"$oid":"590261b4e9379091b1b60e89"},"c_at":"2017-04-27T21:25:08.313Z","chapman_code":"CON","district_name":"East","film_number":"241258","freecen1_filename":"ho410134.vld","freecen1_fixed_dat_entry_id":{"$oid":"590261b4e9379091b1b60e73"},"num_individuals":11507,"online_time":null,"parish_number":null,"piece_number":134,"place_country":"England","place_id":{"$oid":"590261b4e9379091b1b60e9e"},"place_latitude":"50.541666625","place_longitude":"-4.370833374999999","remarks":null,"remarks_coord":null,"status":"Online","subplaces":[{"name":"Egloskerry","lat":"50.65","long":"-4.45"},{"name":"Laneast","lat":0.0,"long":0.0},{"name":"Lawhitton","lat":"50.616667","long":"-4.316667"},{"name":"Lewannick","lat":"50.6","long":"-4.433333"},{"name":"Lezant","lat":"50.583333","long":"-4.35"},{"name":"Linkinhorne","lat":"50.533333","long":"-4.366667"},{"name":"North Hill","lat":"50.55","long":"-4.433333"},{"name":"South Petherwin","lat":"50.616667","long":"-4.383333"},{"name":"St. Stephens Newport","lat":0.0,"long":0.0},{"name":"Stoke Climsland","lat":"50.533333","long":"-4.316667"},{"name":"St. Thomas Apostle","lat":0.0,"long":0.0},{"name":"St. Thomas Hamlet","lat":0.0,"long":0.0},{"name":"Tremayne","lat":0.0,"long":0.0},{"name":"Tresmeer","lat":"50.65","long":"-4.5"},{"name":"Trewen","lat":"50.616667","long":"-4.466667"}],"subplaces_sort":"egloskerry, laneast, lawhitton, lewannick, lezant, linkinhorne, north hill, south petherwin, st. stephens newport, stoke climsland, st. thomas apostle, st. thomas hamlet, tremayne, tresmeer, trewen","suffix":null,"u_at":"2017-05-04T19:05:05.168Z","year":"1841"},{"_id":{"$oid":"590261b4e9379091b1b60e8a"},"c_at":"2017-04-27T21:25:08.314Z","chapman_code":"CON","district_name":"East","film_number":"241259","freecen1_filename":"ho410135.vld","freecen1_fixed_dat_entry_id":{"$oid":"590261b4e9379091b1b60e74"},"num_individuals":13453,"online_time":null,"parish_number":null,"piece_number":135,"place_country":"England","place_id":{"$oid":"590261b4e9379091b1b60e9e"},"place_latitude":"50.541666625","place_longitude":"-4.370833374999999","remarks":null,"remarks_coord":null,"status":"Online","subplaces":[{"name":"St. Jacob Antony","lat":0.0,"long":0.0},{"name":"Botus Fleming","lat":0.0,"long":0.0},{"name":"St. Germans Borough","lat":0.0,"long":0.0},{"name":"St. Johns","lat":0.0,"long":0.0},{"name":"Landrake w St. Erney","lat":0.0,"long":0.0},{"name":"Landulph","lat":0.0,"long":0.0},{"name":"Maker","lat":0.0,"long":0.0},{"name":"Rame","lat":0.0,"long":0.0},{"name":"Sheviock","lat":"50.366667","long":"-4.283333"},{"name":"St. Stephens Saltash","lat":0.0,"long":0.0},{"name":"Saltash Borough","lat":0.0,"long":0.0}],"subplaces_sort":"st. jacob antony, botus fleming, st. germans borough, st. johns, landrake w st. erney, landulph, maker, rame, sheviock, st. stephens saltash, saltash borough","suffix":null,"u_at":"2017-05-04T19:05:05.169Z","year":"1841"},{"_id":{"$oid":"590261b4e9379091b1b60e8b"},"c_at":"2017-04-27T21:25:08.315Z","chapman_code":"CON","district_name":"Kerrier","film_number":"241260","freecen1_filename":"ho410136.vld","freecen1_fixed_dat_entry_id":{"$oid":"590261b4e9379091b1b60e75"},"num_individuals":11037,"online_time":null,"parish_number":null,"piece_number":136,"place_country":"England","place_id":{"$oid":"590261b4e9379091b1b60ea0"},"place_latitude":"50.0797221875","place_longitude":"-5.2024651875000005","remarks":null,"remarks_coord":null,"status":"Online","subplaces":[{"name":"St. Anthony Meneage","lat":0.0,"long":0.0},{"name":"Breage","lat":"50.1","long":"-5.333333"},{"name":"Budock","lat":"50.15","long":"-5.116667"},{"name":"Constantine","lat":"50.116667","long":"-5.166667"},{"name":"Cury","lat":"50.05","long":"-5.25"}],"subplaces_sort":"st. anthony meneage, breage, budock, constantine, cury","suffix":null,"u_at":"2017-05-04T19:05:05.227Z","year":"1841"},{"_id":{"$oid":"590261b4e9379091b1b60e8c"},"c_at":"2017-04-27T21:25:08.316Z","chapman_code":"CON","district_name":"Kerrier","film_number":"241260","freecen1_filename":"ho410137.vld","freecen1_fixed_dat_entry_id":{"$oid":"590261b4e9379091b1b60e76"},"num_individuals":17240,"online_time":null,"parish_number":null,"piece_number":137,"place_country":"England","place_id":{"$oid":"590261b4e9379091b1b60ea0"},"place_latitude":"50.0797221875","place_longitude":"-5.2024651875000005","remarks":null,"remarks_coord":null,"status":"Online","subplaces":[{"name":"Germoe","lat":"50.116667","long":"-5.383333"},{"name":"St. Gluvias","lat":0.0,"long":0.0},{"name":"Penryn Borough","lat":0.0,"long":0.0},{"name":"Grade","lat":"49.983333","long":"-5.2"},{"name":"Gunwalloe","lat":"50.033333","long":"-5.266667"},{"name":"Gwennap and St. Day","lat":0.0,"long":0.0}],"subplaces_sort":"germoe, st. gluvias, penryn borough, grade, gunwalloe, gwennap and st. day","suffix":null,"u_at":"2017-05-04T19:05:05.228Z","year":"1841"},{"_id":{"$oid":"590261b4e9379091b1b60e8d"},"c_at":"2017-04-27T21:25:08.317Z","chapman_code":"CON","district_name":"Kerrier","film_number":"241261","freecen1_filename":"ho410138.vld","freecen1_fixed_dat_entry_id":{"$oid":"590261b4e9379091b1b60e77"},"num_individuals":11882,"online_time":null,"parish_number":null,"piece_number":138,"place_country":"England","place_id":{"$oid":"590261b4e9379091b1b60ea0"},"place_latitude":"50.0797221875","place_longitude":"-5.2024651875000005","remarks":null,"remarks_coord":null,"status":"Online","subplaces":[{"name":"St. Keverne","lat":0.0,"long":0.0},{"name":"Landewednack","lat":"49.966667","long":"-5.2"},{"name":"Mabe","lat":0.0,"long":0.0},{"name":"Manaccan","lat":"50.083333","long":"-5.133333"},{"name":"St. Martin Meneage","lat":0.0,"long":0.0},{"name":"Mawgan in Meneage","lat":"50.083333","long":"-5.183333"},{"name":"Mawnan","lat":"50.1","long":"-5.1"},{"name":"Mullion","lat":"50.025556","long":"-5.239444"},{"name":"Mylor","lat":"50.166667","long":"-5.05"},{"name":"Perranarworthal","lat":0.0,"long":0.0},{"name":"Ruan Minor","lat":"49.983333","long":"-5.183333"},{"name":"Muan Major","lat":0.0,"long":0.0}],"subplaces_sort":"st. keverne, landewednack, mabe, manaccan, st. martin meneage, mawgan in meneage, mawnan, mullion, mylor, perranarworthal, ruan minor, muan major","suffix":null,"u_at":"2017-05-04T19:05:05.229Z","year":"1841"},{"_id":{"$oid":"590261b4e9379091b1b60e8e"},"c_at":"2017-04-27T21:25:08.319Z","chapman_code":"CON","district_name":"Kerrier","film_number":"241261","freecen1_filename":"ho410139.vld","freecen1_fixed_dat_entry_id":{"$oid":"590261b4e9379091b1b60e78"},"num_individuals":15049,"online_time":null,"parish_number":null,"piece_number":139,"place_country":"England","place_id":{"$oid":"590261b4e9379091b1b60ea0"},"place_latitude":"50.0797221875","place_longitude":"-5.2024651875000005","remarks":null,"remarks_coord":null,"status":"Online","subplaces":[{"name":"Sithney","lat":0.0,"long":0.0},{"name":"Stithians","lat":"50.183333","long":"-5.183333"},{"name":"Wendron","lat":"50.133333","long":"-5.25"},{"name":"Wendron Helston Boro","lat":0.0,"long":0.0}],"subplaces_sort":"sithney, stithians, wendron, wendron helston boro","suffix":null,"u_at":"2017-05-04T19:05:05.230Z","year":"1841"},{"_id":{"$oid":"590261b4e9379091b1b60e8f"},"c_at":"2017-04-27T21:25:08.320Z","chapman_code":"CON","district_name":"Lesnewth","film_number":"241262","freecen1_filename":"ho410140.vld","freecen1_fixed_dat_entry_id":{"$oid":"590261b4e9379091b1b60e79"},"num_individuals":9011,"online_time":null,"parish_number":null,"piece_number":140,"place_country":"England","place_id":{"$oid":"590261b4e9379091b1b60ea2"},"place_latitude":"50.705","place_longitude":"-4.0583333","remarks":null,"remarks_coord":null,"status":"Online","subplaces":[{"name":"Advent with Penpont","lat":0.0,"long":0.0},{"name":"Altarnun","lat":"50.6","long":"-4.533333"},{"name":"St. Clether","lat":0.0,"long":0.0},{"name":"Davidstow","lat":"50.65","long":"-4.616667"},{"name":"Forrabury","lat":"50.683333","long":"-4.716667"},{"name":"St. Gennys","lat":0.0,"long":0.0},{"name":"St. Juliot","lat":0.0,"long":0.0},{"name":"Lanteglos","lat":"50.333333","long":"-4.616667"},{"name":"Lanteglos Camelford","lat":0.0,"long":0.0},{"name":"Lesnewth","lat":0.0,"long":0.0},{"name":"Michaelstow","lat":"50.566667","long":"-4.7"},{"name":"Minster","lat":"51.416667","long":".816667"},{"name":"Otterham","lat":"50.683333","long":"-4.6"},{"name":"Poundstock","lat":"50.766667","long":"-4.55"},{"name":"Tintagel","lat":0.0,"long":0.0},{"name":"Tintagel Bossiney","lat":0.0,"long":0.0},{"name":"Treneglos","lat":"50.666667","long":"-4.533333"},{"name":"Trevalga","lat":0.0,"long":0.0},{"name":"Warbstow","lat":"50.683333","long":"-4.533333"}],"subplaces_sort":"advent with penpont, altarnun, st. clether, davidstow, forrabury, st. gennys, st. juliot, lanteglos, lanteglos camelford, lesnewth, michaelstow, minster, otterham, poundstock, tintagel, tintagel bossiney, treneglos, trevalga, warbstow","suffix":null,"u_at":"2017-05-04T19:05:05.285Z","year":"1841"}]